{
"hotelsData":[
{
"Name":"לאונרדו פלאזה",
"address":"רב אלוף דוד אלעזר 10, חיפה",
"rating":"4 כוכבים",
"Latitude": "32.804421",
"Longitude": "34.957012"
},
{
"Name":"דן כרמל",
"address":"שדרות הנשיא 85-87, חיפה",
"rating":"5 כוכבים",
"Latitude": "32.809960",
"Longitude": "34.984685"
},
{
"Name":"מלון קראון פלזה",
"address":"יפה נוף 111, חיפה",
"rating":"4 כוכבים",
"Latitude": "32.804411",
"Longitude": "34.989704"
},
{
"Name":"דן פנורמה",
"address":"שדרות הנשיא 107, חיפה",
"rating":"5 כוכבים",
"Latitude": "32.806435",
"Longitude": "34.986443"
},
{
"Name":"וילה כרמל",
"address":"היינריך היינה 1, חיפה",
"rating":"5 כוכבים",
"Latitude": "32.799251",
"Longitude": "34.983994"
},
{
"Name":"מלון ביי וויו",
"address":"שדרות הנשיא 101, חיפה",
"rating":"4 כוכבים",
"Latitude": "32.807938",
"Longitude": "34.986573"
},
{
"Name":"גארדן הוטל",
"address":"קדושי יאסי 2, חיפה",
"rating":"5 כוכבים",
"Latitude": "32.791939",
"Longitude": "34.964996"
},
{
"Name":"מלון קולוני",
"address":"שדרות בן גוריון 28, חיפה",
"rating":"4 כוכבים",
"Latitude": "32.820357",
"Longitude": "34.990368"
}

]}
