{
"restData":[
{
"Name":"סליק",
"type":"פאב",
"address":"שדרות הנשיא 124, חיפה",
"Latitude": "32.804749",
"Longitude": "34.986858"
},
{
"Name":"לופט 124",
"type":"מועדון",
"address":"שדרות הנשיא 124, חיפה",
"Latitude": "32.804749",
"Longitude": "34.986858"
},
{
"Name":"בראון",
"type":"פאב",
"address":"שדרות מוריה 131, חיפה",
"Latitude": "32.787426",
"Longitude": "34.985832"
},
{
"Name":"פאב הדיוק",
"type":"פאב אירי",
"address":"שדרות מוריה 107, חיפה",
"Latitude": "32.789596",
"Longitude": "34.986874"
},
{
"Name":"צפרירים 1",
"type":"פאב",
"address":"צפרירים 1, חיפה",
"Latitude": "32.796837",
"Longitude": "34.983782"
},
{
"Name":"מוריסון",
"type":"מועדון",
"address":"יפה נוף 115, חיפה",
"Latitude": "32.804442",
"Longitude": "34.990315"
},
{
"Name":"סינקופה בר",
"type":"פאב",
"address":"כיאט 5, חיפה",
"Latitude": "32.818557",
"Longitude": "34.998767"
},
{
"Name":"סטלה",
"type":"לאונג' בר",
"address":"הירקון פינת מוריה 1, חיפה",
"Latitude": "32.796013",
"Longitude": "34.984286"
}
]}