{
"restData":[
{
"Name":"רפאלו",
"type":"מסעדה איטלקית",
"address":"קניון קסטרא, פלימן 8, חיפה",
"Latitude": "32.788621",
"Longitude": "34.967463"
},
{
"Name":"ויוינו - הרובע האיטלקי",
"type":"מסעדה איטלקית",
"address":"מתחם פז, חיפה",
"Latitude": "32.786660",
"Longitude": "34.998743"
},
{
"Name":"טאטאמי",
"type":"מסעדה אסייתית",
"address":"שדרות מוריה 11, חיפה",
"Latitude": "32.801939",
"Longitude": "34.984181"
},
{
"Name":"מינה טומיי",
"type":"מסעדה אסייתית",
"address":"קניון קסטרא, פלימן 8, חיפה",
"Latitude": "32.788621",
"Longitude": "34.967463"
},
{
"Name":"שוואטינא",
"type":"מסעדה ים תיכונית",
"address":"דרך סטלה מאריס 100, חיפה",
"Latitude": "32.827991",
"Longitude": "34.970193"
},
{
"Name":"הנמל 24",
"type":"מסעדת שף",
"address":"הנמל 24, חיפה",
"Latitude": "32.819002",
"Longitude": "35.000720"
},
{
"Name":"סינטה בר",
"type":"מסעדת ביסטרו",
"address":"שדרות מוריה 127, חיפה",
"Latitude": "32.787665",
"Longitude": "34.986238"
},
{
"Name":"סטקיית הבוקרים",
"type":"מסעדת בשרים",
"address":"תחנת דלק פז, קדושי יאסי 1, חיפה",
"Latitude": "32.790574",
"Longitude": "34.964090"
}
]}